[
  {
    "id": "hosp_001",
    "name": "강남 24시 동물병원",
    "address": "서울특별시 강남구 테헤란로 123",
    "city": "서울특별시 강남구",
    "latitude": 37.5012,
    "longitude": 127.0395,
    "departments": ["내과", "외과", "응급의학과"],
    "operatingHours": "24시간",
    "phone": "02-1234-5678",
    "description": "24시간 응급 진료 가능, 내시경 장비 보유",
    "distanceKm": 0.0
  },
  {
    "id": "hosp_002",
    "name": "서초 동물의료센터",
    "address": "서울특별시 서초구 서초대로 456",
    "city": "서울특별시 서초구",
    "latitude": 37.4838,
    "longitude": 127.0324,
    "departments": ["내과", "정형외과", "피부과"],
    "operatingHours": "09:00~19:00",
    "phone": "02-2345-6789",
    "description": "정형외과 전문, CT/MRI 장비 보유",
    "distanceKm": 0.0
  },
  {
    "id": "hosp_003",
    "name": "강남구 동물병원",
    "address": "서울특별시 강남구 역삼로 789",
    "city": "서울특별시 강남구",
    "latitude": 37.4985,
    "longitude": 127.0285,
    "departments": ["내과", "외과", "안과"],
    "operatingHours": "09:00~18:00",
    "phone": "02-3456-7890",
    "description": "안과 전문 진료",
    "distanceKm": 0.0
  },
  {
    "id": "hosp_004",
    "name": "송파 24시 동물병원",
    "address": "서울특별시 송파구 올림픽로 234",
    "city": "서울특별시 송파구",
    "latitude": 37.5145,
    "longitude": 127.1058,
    "departments": ["내과", "외과", "응급의학과"],
    "operatingHours": "24시간",
    "phone": "02-4567-8901",
    "description": "송파구 24시간 응급 진료",
    "distanceKm": 0.0
  },
  {
    "id": "hosp_005",
    "name": "강동 동물의료센터",
    "address": "서울특별시 강동구 천호대로 567",
    "city": "서울특별시 강동구",
    "latitude": 37.5301,
    "longitude": 127.1238,
    "departments": ["내과", "정형외과", "피부과"],
    "operatingHours": "09:00~19:00",
    "phone": "02-5678-9012",
    "description": "강동구 종합 동물병원",
    "distanceKm": 0.0
  },
  {
    "id": "hosp_006",
    "name": "마포 동물병원",
    "address": "서울특별시 마포구 홍대로 890",
    "city": "서울특별시 마포구",
    "latitude": 37.5563,
    "longitude": 126.9236,
    "departments": ["내과", "외과"],
    "operatingHours": "09:00~18:00",
    "phone": "02-6789-0123",
    "description": "마포구 지역 동물병원",
    "distanceKm": 0.0
  },
  {
    "id": "hosp_007",
    "name": "용산 24시 동물병원",
    "address": "서울특별시 용산구 한강대로 123",
    "city": "서울특별시 용산구",
    "latitude": 37.5326,
    "longitude": 126.9904,
    "departments": ["내과", "외과", "응급의학과"],
    "operatingHours": "24시간",
    "phone": "02-7890-1234",
    "description": "용산구 24시간 응급 진료",
    "distanceKm": 0.0
  },
  {
    "id": "hosp_008",
    "name": "종로 동물의료센터",
    "address": "서울특별시 종로구 종로 456",
    "city": "서울특별시 종로구",
    "latitude": 37.5704,
    "longitude": 126.9910,
    "departments": ["내과", "정형외과", "안과"],
    "operatingHours": "09:00~19:00",
    "phone": "02-8901-2345",
    "description": "종로구 종합 동물병원",
    "distanceKm": 0.0
  },
  {
    "id": "hosp_009",
    "name": "중구 동물병원",
    "address": "서울특별시 중구 을지로 789",
    "city": "서울특별시 중구",
    "latitude": 37.5636,
    "longitude": 126.9900,
    "departments": ["내과", "외과", "피부과"],
    "operatingHours": "09:00~18:00",
    "phone": "02-9012-3456",
    "description": "중구 지역 동물병원",
    "distanceKm": 0.0
  },
  {
    "id": "hosp_010",
    "name": "성동 동물병원",
    "address": "서울특별시 성동구 왕십리로 234",
    "city": "서울특별시 성동구",
    "latitude": 37.5634,
    "longitude": 127.0366,
    "departments": ["내과", "외과"],
    "operatingHours": "09:00~18:00",
    "phone": "02-0123-4567",
    "description": "성동구 지역 동물병원",
    "distanceKm": 0.0
  },
  {
    "id": "hosp_011",
    "name": "광진 동물의료센터",
    "address": "서울특별시 광진구 능동로 567",
    "city": "서울특별시 광진구",
    "latitude": 37.5502,
    "longitude": 127.0852,
    "departments": ["내과", "정형외과", "피부과"],
    "operatingHours": "09:00~19:00",
    "phone": "02-1234-5678",
    "description": "광진구 종합 동물병원",
    "distanceKm": 0.0
  },
  {
    "id": "hosp_012",
    "name": "강서 24시 동물병원",
    "address": "서울특별시 강서구 화곡로 890",
    "city": "서울특별시 강서구",
    "latitude": 37.5509,
    "longitude": 126.8495,
    "departments": ["내과", "외과", "응급의학과"],
    "operatingHours": "24시간",
    "phone": "02-2345-6789",
    "description": "강서구 24시간 응급 진료",
    "distanceKm": 0.0
  },
  {
    "id": "hosp_013",
    "name": "양천 동물병원",
    "address": "서울특별시 양천구 목동로 123",
    "city": "서울특별시 양천구",
    "latitude": 37.5263,
    "longitude": 126.8643,
    "departments": ["내과", "외과", "안과"],
    "operatingHours": "09:00~18:00",
    "phone": "02-3456-7890",
    "description": "양천구 지역 동물병원",
    "distanceKm": 0.0
  },
  {
    "id": "hosp_014",
    "name": "영등포 동물의료센터",
    "address": "서울특별시 영등포구 영등포로 456",
    "city": "서울특별시 영등포구",
    "latitude": 37.5264,
    "longitude": 126.8962,
    "departments": ["내과", "정형외과", "피부과"],
    "operatingHours": "09:00~19:00",
    "phone": "02-4567-8901",
    "description": "영등포구 종합 동물병원",
    "distanceKm": 0.0
  },
  {
    "id": "hosp_015",
    "name": "금천 24시 동물병원",
    "address": "서울특별시 금천구 시흥대로 789",
    "city": "서울특별시 금천구",
    "latitude": 37.4515,
    "longitude": 126.9019,
    "departments": ["내과", "외과", "응급의학과"],
    "operatingHours": "24시간",
    "phone": "02-5678-9012",
    "description": "금천구 24시간 응급 진료",
    "distanceKm": 0.0
  },
  {
    "id": "hosp_016",
    "name": "구로 동물병원",
    "address": "서울특별시 구로구 구로로 234",
    "city": "서울특별시 구로구",
    "latitude": 37.4852,
    "longitude": 126.9014,
    "departments": ["내과", "외과"],
    "operatingHours": "09:00~18:00",
    "phone": "02-6789-0123",
    "description": "구로구 지역 동물병원",
    "distanceKm": 0.0
  },
  {
    "id": "hosp_017",
    "name": "관악 동물의료센터",
    "address": "서울특별시 관악구 신림로 567",
    "city": "서울특별시 관악구",
    "latitude": 37.4845,
    "longitude": 126.9296,
    "departments": ["내과", "정형외과", "피부과"],
    "operatingHours": "09:00~19:00",
    "phone": "02-7890-1234",
    "description": "관악구 종합 동물병원",
    "distanceKm": 0.0
  },
  {
    "id": "hosp_018",
    "name": "동작 24시 동물병원",
    "address": "서울특별시 동작구 상도로 890",
    "city": "서울특별시 동작구",
    "latitude": 37.5124,
    "longitude": 126.9392,
    "departments": ["내과", "외과", "응급의학과"],
    "operatingHours": "24시간",
    "phone": "02-8901-2345",
    "description": "동작구 24시간 응급 진료",
    "distanceKm": 0.0
  },
  {
    "id": "hosp_019",
    "name": "은평 동물병원",
    "address": "서울특별시 은평구 은평로 123",
    "city": "서울특별시 은평구",
    "latitude": 37.6027,
    "longitude": 126.9291,
    "departments": ["내과", "외과", "안과"],
    "operatingHours": "09:00~18:00",
    "phone": "02-9012-3456",
    "description": "은평구 지역 동물병원",
    "distanceKm": 0.0
  },
  {
    "id": "hosp_020",
    "name": "노원 동물의료센터",
    "address": "서울특별시 노원구 상계로 456",
    "city": "서울특별시 노원구",
    "latitude": 37.6542,
    "longitude": 127.0568,
    "departments": ["내과", "정형외과", "피부과"],
    "operatingHours": "09:00~19:00",
    "phone": "02-0123-4567",
    "description": "노원구 종합 동물병원",
    "distanceKm": 0.0
  },
  {
    "id": "hosp_021",
    "name": "도봉 24시 동물병원",
    "address": "서울특별시 도봉구 도봉로 789",
    "city": "서울특별시 도봉구",
    "latitude": 37.6688,
    "longitude": 127.0471,
    "departments": ["내과", "외과", "응급의학과"],
    "operatingHours": "24시간",
    "phone": "02-1234-5678",
    "description": "도봉구 24시간 응급 진료",
    "distanceKm": 0.0
  },
  {
    "id": "hosp_022",
    "name": "강북 동물병원",
    "address": "서울특별시 강북구 4.19로 234",
    "city": "서울특별시 강북구",
    "latitude": 37.6398,
    "longitude": 127.0256,
    "departments": ["내과", "외과"],
    "operatingHours": "09:00~18:00",
    "phone": "02-2345-6789",
    "description": "강북구 지역 동물병원",
    "distanceKm": 0.0
  },
  {
    "id": "hosp_023",
    "name": "성북 동물의료센터",
    "address": "서울특별시 성북구 종암로 567",
    "city": "서울특별시 성북구",
    "latitude": 37.5929,
    "longitude": 127.0274,
    "departments": ["내과", "정형외과", "피부과"],
    "operatingHours": "09:00~19:00",
    "phone": "02-3456-7890",
    "description": "성북구 종합 동물병원",
    "distanceKm": 0.0
  },
  {
    "id": "hosp_024",
    "name": "강서구 동물병원",
    "address": "서울특별시 강서구 화곡로 890",
    "city": "서울특별시 강서구",
    "latitude": 37.5326,
    "longitude": 126.8372,
    "departments": ["내과", "외과", "안과"],
    "operatingHours": "09:00~18:00",
    "phone": "02-4567-8901",
    "description": "강서구 지역 동물병원",
    "distanceKm": 0.0
  },
  {
    "id": "hosp_025",
    "name": "서대문 24시 동물병원",
    "address": "서울특별시 서대문구 연세로 123",
    "city": "서울특별시 서대문구",
    "latitude": 37.5643,
    "longitude": 126.9390,
    "departments": ["내과", "외과", "응급의학과"],
    "operatingHours": "24시간",
    "phone": "02-5678-9012",
    "description": "서대문구 24시간 응급 진료",
    "distanceKm": 0.0
  },
  {
    "id": "hosp_026",
    "name": "대전 유성 동물병원",
    "address": "대전광역시 유성구 대학로 789",
    "city": "대전광역시 유성구",
    "latitude": 36.3628,
    "longitude": 127.3566,
    "departments": ["내과", "외과"],
    "operatingHours": "09:00~18:00",
    "phone": "042-3456-7890",
    "description": "소화기 내과 전문",
    "distanceKm": 0.0
  },
  {
    "id": "hosp_027",
    "name": "유성구 24시 동물병원",
    "address": "대전광역시 유성구 궁동로 123",
    "city": "대전광역시 유성구",
    "latitude": 36.3645,
    "longitude": 127.3389,
    "departments": ["내과", "외과", "응급의학과"],
    "operatingHours": "24시간",
    "phone": "042-1234-5678",
    "description": "24시간 응급 진료, 유성구 중심가 위치",
    "distanceKm": 0.0
  },
  {
    "id": "hosp_028",
    "name": "대전 동물의료센터",
    "address": "대전광역시 유성구 엑스포로 456",
    "city": "대전광역시 유성구",
    "latitude": 36.3750,
    "longitude": 127.3850,
    "departments": ["내과", "정형외과", "피부과"],
    "operatingHours": "09:00~19:00",
    "phone": "042-2345-6789",
    "description": "종합 동물병원, 정형외과 전문",
    "distanceKm": 0.0
  },
  {
    "id": "hosp_029",
    "name": "대전 중앙동물병원",
    "address": "대전광역시 중구 중앙로 789",
    "city": "대전광역시 중구",
    "latitude": 36.3250,
    "longitude": 127.4200,
    "departments": ["내과", "외과"],
    "operatingHours": "09:00~18:00",
    "phone": "042-3456-7890",
    "description": "대전 시내 중심가 위치",
    "distanceKm": 0.0
  },
  {
    "id": "hosp_030",
    "name": "서대전 동물병원",
    "address": "대전광역시 서구 둔산로 123",
    "city": "대전광역시 서구",
    "latitude": 36.3500,
    "longitude": 127.3800,
    "departments": ["내과", "외과", "안과"],
    "operatingHours": "09:00~18:00",
    "phone": "042-4567-8901",
    "description": "서대전 지역 대표 동물병원",
    "distanceKm": 0.0
  },
  {
    "id": "hosp_031",
    "name": "대전 동구 동물병원",
    "address": "대전광역시 동구 동서대로 456",
    "city": "대전광역시 동구",
    "latitude": 36.3284,
    "longitude": 127.4345,
    "departments": ["내과", "외과", "피부과"],
    "operatingHours": "09:00~18:00",
    "phone": "042-5678-9012",
    "description": "대전 동구 지역 동물병원",
    "distanceKm": 0.0
  },
  {
    "id": "hosp_032",
    "name": "대전 대덕구 동물의료센터",
    "address": "대전광역시 대덕구 한밭대로 789",
    "city": "대전광역시 대덕구",
    "latitude": 36.3535,
    "longitude": 127.3845,
    "departments": ["내과", "정형외과", "피부과"],
    "operatingHours": "09:00~19:00",
    "phone": "042-6789-0123",
    "description": "대덕구 종합 동물병원",
    "distanceKm": 0.0
  },
  {
    "id": "hosp_033",
    "name": "부산 해운대 동물병원",
    "address": "부산광역시 해운대구 해운대해변로 123",
    "city": "부산광역시 해운대구",
    "latitude": 35.1631,
    "longitude": 129.1636,
    "departments": ["내과", "외과"],
    "operatingHours": "09:00~18:00",
    "phone": "051-1234-5678",
    "description": "해운대 지역 대표 동물병원",
    "distanceKm": 0.0
  },
  {
    "id": "hosp_034",
    "name": "부산 24시 동물병원",
    "address": "부산광역시 해운대구 센텀중앙로 456",
    "city": "부산광역시 해운대구",
    "latitude": 35.1689,
    "longitude": 129.1304,
    "departments": ["내과", "외과", "응급의학과"],
    "operatingHours": "24시간",
    "phone": "051-2345-6789",
    "description": "해운대 24시간 응급 진료",
    "distanceKm": 0.0
  },
  {
    "id": "hosp_035",
    "name": "부산 서면 동물의료센터",
    "address": "부산광역시 부산진구 중앙대로 789",
    "city": "부산광역시 부산진구",
    "latitude": 35.1581,
    "longitude": 129.0594,
    "departments": ["내과", "정형외과", "피부과"],
    "operatingHours": "09:00~19:00",
    "phone": "051-3456-7890",
    "description": "서면 종합 동물병원",
    "distanceKm": 0.0
  },
  {
    "id": "hosp_036",
    "name": "부산 남구 동물병원",
    "address": "부산광역시 남구 용소로 234",
    "city": "부산광역시 남구",
    "latitude": 35.1366,
    "longitude": 129.0844,
    "departments": ["내과", "외과", "안과"],
    "operatingHours": "09:00~18:00",
    "phone": "051-4567-8901",
    "description": "남구 지역 동물병원",
    "distanceKm": 0.0
  },
  {
    "id": "hosp_037",
    "name": "부산 동래 24시 동물병원",
    "address": "부산광역시 동래구 중앙대로 567",
    "city": "부산광역시 동래구",
    "latitude": 35.2045,
    "longitude": 129.0780,
    "departments": ["내과", "외과", "응급의학과"],
    "operatingHours": "24시간",
    "phone": "051-5678-9012",
    "description": "동래구 24시간 응급 진료",
    "distanceKm": 0.0
  },
  {
    "id": "hosp_038",
    "name": "부산 사상 동물병원",
    "address": "부산광역시 사상구 낙동대로 890",
    "city": "부산광역시 사상구",
    "latitude": 35.1527,
    "longitude": 128.9903,
    "departments": ["내과", "외과"],
    "operatingHours": "09:00~18:00",
    "phone": "051-6789-0123",
    "description": "사상구 지역 동물병원",
    "distanceKm": 0.0
  },
  {
    "id": "hosp_039",
    "name": "부산 금정 동물의료센터",
    "address": "부산광역시 금정구 중앙대로 123",
    "city": "부산광역시 금정구",
    "latitude": 35.2430,
    "longitude": 129.0920,
    "departments": ["내과", "정형외과", "피부과"],
    "operatingHours": "09:00~19:00",
    "phone": "051-7890-1234",
    "description": "금정구 종합 동물병원",
    "distanceKm": 0.0
  },
  {
    "id": "hosp_040",
    "name": "부산 연제 동물병원",
    "address": "부산광역시 연제구 중앙대로 456",
    "city": "부산광역시 연제구",
    "latitude": 35.1763,
    "longitude": 129.0794,
    "departments": ["내과", "외과", "안과"],
    "operatingHours": "09:00~18:00",
    "phone": "051-8901-2345",
    "description": "연제구 지역 동물병원",
    "distanceKm": 0.0
  },
  {
    "id": "hosp_041",
    "name": "부산 수영 24시 동물병원",
    "address": "부산광역시 수영구 광안해변로 789",
    "city": "부산광역시 수영구",
    "latitude": 35.1530,
    "longitude": 129.1184,
    "departments": ["내과", "외과", "응급의학과"],
    "operatingHours": "24시간",
    "phone": "051-9012-3456",
    "description": "수영구 24시간 응급 진료",
    "distanceKm": 0.0
  },
  {
    "id": "hosp_042",
    "name": "부산 사하 동물병원",
    "address": "부산광역시 사하구 낙동남로 234",
    "city": "부산광역시 사하구",
    "latitude": 35.1047,
    "longitude": 128.9740,
    "departments": ["내과", "외과"],
    "operatingHours": "09:00~18:00",
    "phone": "051-0123-4567",
    "description": "사하구 지역 동물병원",
    "distanceKm": 0.0
  },
  {
    "id": "hosp_043",
    "name": "인천 송도 동물병원",
    "address": "인천광역시 연수구 송도과학로 123",
    "city": "인천광역시 연수구",
    "latitude": 37.3885,
    "longitude": 126.6588,
    "departments": ["내과", "외과", "정형외과"],
    "operatingHours": "09:00~19:00",
    "phone": "032-1234-5678",
    "description": "송도 신도시 지역 동물병원",
    "distanceKm": 0.0
  },
  {
    "id": "hosp_044",
    "name": "인천 24시 동물병원",
    "address": "인천광역시 연수구 컨벤시아대로 456",
    "city": "인천광역시 연수구",
    "latitude": 37.3925,
    "longitude": 126.6568,
    "departments": ["내과", "외과", "응급의학과"],
    "operatingHours": "24시간",
    "phone": "032-2345-6789",
    "description": "송도 24시간 응급 진료",
    "distanceKm": 0.0
  },
  {
    "id": "hosp_045",
    "name": "인천 남동 동물의료센터",
    "address": "인천광역시 남동구 인주대로 789",
    "city": "인천광역시 남동구",
    "latitude": 37.4484,
    "longitude": 126.7013,
    "departments": ["내과", "정형외과", "피부과"],
    "operatingHours": "09:00~19:00",
    "phone": "032-3456-7890",
    "description": "남동구 종합 동물병원",
    "distanceKm": 0.0
  },
  {
    "id": "hosp_046",
    "name": "인천 부평 동물병원",
    "address": "인천광역시 부평구 부평대로 234",
    "city": "인천광역시 부평구",
    "latitude": 37.4894,
    "longitude": 126.7245,
    "departments": ["내과", "외과", "안과"],
    "operatingHours": "09:00~18:00",
    "phone": "032-4567-8901",
    "description": "부평구 지역 동물병원",
    "distanceKm": 0.0
  },
  {
    "id": "hosp_047",
    "name": "인천 계양 24시 동물병원",
    "address": "인천광역시 계양구 계양대로 567",
    "city": "인천광역시 계양구",
    "latitude": 37.5345,
    "longitude": 126.7365,
    "departments": ["내과", "외과", "응급의학과"],
    "operatingHours": "24시간",
    "phone": "032-5678-9012",
    "description": "계양구 24시간 응급 진료",
    "distanceKm": 0.0
  },
  {
    "id": "hosp_048",
    "name": "인천 서구 동물병원",
    "address": "인천광역시 서구 서곶로 890",
    "city": "인천광역시 서구",
    "latitude": 37.5456,
    "longitude": 126.6765,
    "departments": ["내과", "외과"],
    "operatingHours": "09:00~18:00",
    "phone": "032-6789-0123",
    "description": "서구 지역 동물병원",
    "distanceKm": 0.0
  },
  {
    "id": "hosp_049",
    "name": "인천 중구 동물의료센터",
    "address": "인천광역시 중구 인중로 123",
    "city": "인천광역시 중구",
    "latitude": 37.4738,
    "longitude": 126.6218,
    "departments": ["내과", "정형외과", "피부과"],
    "operatingHours": "09:00~19:00",
    "phone": "032-7890-1234",
    "description": "중구 종합 동물병원",
    "distanceKm": 0.0
  },
  {
    "id": "hosp_050",
    "name": "인천 동구 동물병원",
    "address": "인천광역시 동구 금곡로 456",
    "city": "인천광역시 동구",
    "latitude": 37.4756,
    "longitude": 126.6321,
    "departments": ["내과", "외과", "안과"],
    "operatingHours": "09:00~18:00",
    "phone": "032-8901-2345",
    "description": "동구 지역 동물병원",
    "distanceKm": 0.0
  },
  {
    "id": "hosp_051",
    "name": "광주 동구 동물병원",
    "address": "광주광역시 동구 중앙로 789",
    "city": "광주광역시 동구",
    "latitude": 35.1460,
    "longitude": 126.9236,
    "departments": ["내과", "외과"],
    "operatingHours": "09:00~18:00",
    "phone": "062-1234-5678",
    "description": "동구 지역 동물병원",
    "distanceKm": 0.0
  },
  {
    "id": "hosp_052",
    "name": "광주 서구 24시 동물병원",
    "address": "광주광역시 서구 상무중앙로 234",
    "city": "광주광역시 서구",
    "latitude": 35.1522,
    "longitude": 126.8906,
    "departments": ["내과", "외과", "응급의학과"],
    "operatingHours": "24시간",
    "phone": "062-2345-6789",
    "description": "서구 24시간 응급 진료",
    "distanceKm": 0.0
  },
  {
    "id": "hosp_053",
    "name": "광주 남구 동물의료센터",
    "address": "광주광역시 남구 제봉로 567",
    "city": "광주광역시 남구",
    "latitude": 35.1376,
    "longitude": 126.9084,
    "departments": ["내과", "정형외과", "피부과"],
    "operatingHours": "09:00~19:00",
    "phone": "062-3456-7890",
    "description": "남구 종합 동물병원",
    "distanceKm": 0.0
  },
  {
    "id": "hosp_054",
    "name": "광주 북구 동물병원",
    "address": "광주광역시 북구 용봉로 890",
    "city": "광주광역시 북구",
    "latitude": 35.1761,
    "longitude": 126.9019,
    "departments": ["내과", "외과", "안과"],
    "operatingHours": "09:00~18:00",
    "phone": "062-4567-8901",
    "description": "북구 지역 동물병원",
    "distanceKm": 0.0
  },
  {
    "id": "hosp_055",
    "name": "광주 광산 동물병원",
    "address": "광주광역시 광산구 첨단중앙로 123",
    "city": "광주광역시 광산구",
    "latitude": 35.2225,
    "longitude": 126.8505,
    "departments": ["내과", "외과"],
    "operatingHours": "09:00~18:00",
    "phone": "062-5678-9012",
    "description": "광산구 지역 동물병원",
    "distanceKm": 0.0
  },
  {
    "id": "hosp_056",
    "name": "대구 중구 동물병원",
    "address": "대구광역시 중구 중앙대로 456",
    "city": "대구광역시 중구",
    "latitude": 35.8704,
    "longitude": 128.5954,
    "departments": ["내과", "외과"],
    "operatingHours": "09:00~18:00",
    "phone": "053-1234-5678",
    "description": "중구 지역 동물병원",
    "distanceKm": 0.0
  },
  {
    "id": "hosp_057",
    "name": "대구 동구 24시 동물병원",
    "address": "대구광역시 동구 동부로 789",
    "city": "대구광역시 동구",
    "latitude": 35.8864,
    "longitude": 128.6353,
    "departments": ["내과", "외과", "응급의학과"],
    "operatingHours": "24시간",
    "phone": "053-2345-6789",
    "description": "동구 24시간 응급 진료",
    "distanceKm": 0.0
  },
  {
    "id": "hosp_058",
    "name": "대구 서구 동물의료센터",
    "address": "대구광역시 서구 국채보상로 234",
    "city": "대구광역시 서구",
    "latitude": 35.8714,
    "longitude": 128.5644,
    "departments": ["내과", "정형외과", "피부과"],
    "operatingHours": "09:00~19:00",
    "phone": "053-3456-7890",
    "description": "서구 종합 동물병원",
    "distanceKm": 0.0
  },
  {
    "id": "hosp_059",
    "name": "대구 남구 동물병원",
    "address": "대구광역시 남구 중앙대로 567",
    "city": "대구광역시 남구",
    "latitude": 35.8460,
    "longitude": 128.5914,
    "departments": ["내과", "외과", "안과"],
    "operatingHours": "09:00~18:00",
    "phone": "053-4567-8901",
    "description": "남구 지역 동물병원",
    "distanceKm": 0.0
  },
  {
    "id": "hosp_060",
    "name": "대구 북구 동물병원",
    "address": "대구광역시 북구 태평로 890",
    "city": "대구광역시 북구",
    "latitude": 35.8854,
    "longitude": 128.5824,
    "departments": ["내과", "외과"],
    "operatingHours": "09:00~18:00",
    "phone": "053-5678-9012",
    "description": "북구 지역 동물병원",
    "distanceKm": 0.0
  },
  {
    "id": "hosp_061",
    "name": "대구 수성 24시 동물병원",
    "address": "대구광역시 수성구 달구벌대로 123",
    "city": "대구광역시 수성구",
    "latitude": 35.8584,
    "longitude": 128.6314,
    "departments": ["내과", "외과", "응급의학과"],
    "operatingHours": "24시간",
    "phone": "053-6789-0123",
    "description": "수성구 24시간 응급 진료",
    "distanceKm": 0.0
  },
  {
    "id": "hosp_062",
    "name": "대구 달서 동물의료센터",
    "address": "대구광역시 달서구 성서로 456",
    "city": "대구광역시 달서구",
    "latitude": 35.8294,
    "longitude": 128.5344,
    "departments": ["내과", "정형외과", "피부과"],
    "operatingHours": "09:00~19:00",
    "phone": "053-7890-1234",
    "description": "달서구 종합 동물병원",
    "distanceKm": 0.0
  },
  {
    "id": "hosp_063",
    "name": "대구 달성 동물병원",
    "address": "대구광역시 달성군 현풍읍 테크노대로 789",
    "city": "대구광역시 달성군",
    "latitude": 35.6964,
    "longitude": 128.4454,
    "departments": ["내과", "외과"],
    "operatingHours": "09:00~18:00",
    "phone": "053-8901-2345",
    "description": "달성군 지역 동물병원",
    "distanceKm": 0.0
  },
  {
    "id": "hosp_064",
    "name": "울산 남구 동물병원",
    "address": "울산광역시 남구 삼산로 234",
    "city": "울산광역시 남구",
    "latitude": 35.5384,
    "longitude": 129.3114,
    "departments": ["내과", "외과"],
    "operatingHours": "09:00~18:00",
    "phone": "052-1234-5678",
    "description": "남구 지역 동물병원",
    "distanceKm": 0.0
  },
  {
    "id": "hosp_065",
    "name": "울산 중구 24시 동물병원",
    "address": "울산광역시 중구 성안동 567",
    "city": "울산광역시 중구",
    "latitude": 35.5684,
    "longitude": 129.3324,
    "departments": ["내과", "외과", "응급의학과"],
    "operatingHours": "24시간",
    "phone": "052-2345-6789",
    "description": "중구 24시간 응급 진료",
    "distanceKm": 0.0
  },
  {
    "id": "hosp_066",
    "name": "울산 동구 동물의료센터",
    "address": "울산광역시 동구 방어진순환도로 890",
    "city": "울산광역시 동구",
    "latitude": 35.5044,
    "longitude": 129.4184,
    "departments": ["내과", "정형외과", "피부과"],
    "operatingHours": "09:00~19:00",
    "phone": "052-3456-7890",
    "description": "동구 종합 동물병원",
    "distanceKm": 0.0
  },
  {
    "id": "hosp_067",
    "name": "울산 북구 동물병원",
    "address": "울산광역시 북구 화봉로 123",
    "city": "울산광역시 북구",
    "latitude": 35.5824,
    "longitude": 129.3614,
    "departments": ["내과", "외과", "안과"],
    "operatingHours": "09:00~18:00",
    "phone": "052-4567-8901",
    "description": "북구 지역 동물병원",
    "distanceKm": 0.0
  },
  {
    "id": "hosp_068",
    "name": "울산 울주 동물병원",
    "address": "울산광역시 울주군 삼남읍 신화리 456",
    "city": "울산광역시 울주군",
    "latitude": 35.4154,
    "longitude": 129.1684,
    "departments": ["내과", "외과"],
    "operatingHours": "09:00~18:00",
    "phone": "052-5678-9012",
    "description": "울주군 지역 동물병원",
    "distanceKm": 0.0
  },
  {
    "id": "hosp_069",
    "name": "세종 동물병원",
    "address": "세종특별자치시 조치원읍 번암리 123",
    "city": "세종특별자치시",
    "latitude": 36.4800,
    "longitude": 127.2890,
    "departments": ["내과", "외과"],
    "operatingHours": "09:00~18:00",
    "phone": "044-1234-5678",
    "description": "세종 지역 대표 동물병원",
    "distanceKm": 0.0
  },
  {
    "id": "hosp_070",
    "name": "세종 24시 동물병원",
    "address": "세종특별자치시 한누리대로 456",
    "city": "세종특별자치시",
    "latitude": 36.4900,
    "longitude": 127.2950,
    "departments": ["내과", "외과", "응급의학과"],
    "operatingHours": "24시간",
    "phone": "044-2345-6789",
    "description": "세종 지역 유일 24시간 동물병원",
    "distanceKm": 0.0
  },
  {
    "id": "hosp_071",
    "name": "수원 동물병원",
    "address": "경기도 수원시 영통구 광교로 789",
    "city": "경기도 수원시",
    "latitude": 37.2636,
    "longitude": 127.0286,
    "departments": ["내과", "외과"],
    "operatingHours": "09:00~18:00",
    "phone": "031-1234-5678",
    "description": "수원 지역 동물병원",
    "distanceKm": 0.0
  },
  {
    "id": "hosp_072",
    "name": "수원 24시 동물병원",
    "address": "경기도 수원시 영통구 월드컵로 234",
    "city": "경기도 수원시",
    "latitude": 37.2836,
    "longitude": 127.0456,
    "departments": ["내과", "외과", "응급의학과"],
    "operatingHours": "24시간",
    "phone": "031-2345-6789",
    "description": "수원 24시간 응급 진료",
    "distanceKm": 0.0
  },
  {
    "id": "hosp_073",
    "name": "성남 동물의료센터",
    "address": "경기도 성남시 분당구 정자로 567",
    "city": "경기도 성남시",
    "latitude": 37.3595,
    "longitude": 127.1086,
    "departments": ["내과", "정형외과", "피부과"],
    "operatingHours": "09:00~19:00",
    "phone": "031-3456-7890",
    "description": "성남 분당 종합 동물병원",
    "distanceKm": 0.0
  },
  {
    "id": "hosp_074",
    "name": "고양 동물병원",
    "address": "경기도 고양시 일산동구 중앙로 890",
    "city": "경기도 고양시",
    "latitude": 37.6584,
    "longitude": 126.7696,
    "departments": ["내과", "외과", "안과"],
    "operatingHours": "09:00~18:00",
    "phone": "031-4567-8901",
    "description": "고양 일산 지역 동물병원",
    "distanceKm": 0.0
  },
  {
    "id": "hosp_075",
    "name": "용인 24시 동물병원",
    "address": "경기도 용인시 기흥구 신갈로 123",
    "city": "경기도 용인시",
    "latitude": 37.2745,
    "longitude": 127.1116,
    "departments": ["내과", "외과", "응급의학과"],
    "operatingHours": "24시간",
    "phone": "031-5678-9012",
    "description": "용인 24시간 응급 진료",
    "distanceKm": 0.0
  },
  {
    "id": "hosp_076",
    "name": "부천 동물의료센터",
    "address": "경기도 부천시 원미구 중동로 456",
    "city": "경기도 부천시",
    "latitude": 37.5034,
    "longitude": 126.7660,
    "departments": ["내과", "정형외과", "피부과"],
    "operatingHours": "09:00~19:00",
    "phone": "032-6789-0123",
    "description": "부천 종합 동물병원",
    "distanceKm": 0.0
  },
  {
    "id": "hosp_077",
    "name": "안산 동물병원",
    "address": "경기도 안산시 단원구 광덕로 789",
    "city": "경기도 안산시",
    "latitude": 37.3219,
    "longitude": 126.8309,
    "departments": ["내과", "외과"],
    "operatingHours": "09:00~18:00",
    "phone": "031-7890-1234",
    "description": "안산 지역 동물병원",
    "distanceKm": 0.0
  },
  {
    "id": "hosp_078",
    "name": "안양 24시 동물병원",
    "address": "경기도 안양시 만안구 안양로 234",
    "city": "경기도 안양시",
    "latitude": 37.3943,
    "longitude": 126.9569,
    "departments": ["내과", "외과", "응급의학과"],
    "operatingHours": "24시간",
    "phone": "031-8901-2345",
    "description": "안양 24시간 응급 진료",
    "distanceKm": 0.0
  },
  {
    "id": "hosp_079",
    "name": "평택 동물병원",
    "address": "경기도 평택시 평택로 567",
    "city": "경기도 평택시",
    "latitude": 36.9920,
    "longitude": 127.1129,
    "departments": ["내과", "외과", "안과"],
    "operatingHours": "09:00~18:00",
    "phone": "031-9012-3456",
    "description": "평택 지역 동물병원",
    "distanceKm": 0.0
  },
  {
    "id": "hosp_080",
    "name": "의정부 동물의료센터",
    "address": "경기도 의정부시 평안로 890",
    "city": "경기도 의정부시",
    "latitude": 37.7381,
    "longitude": 127.0477,
    "departments": ["내과", "정형외과", "피부과"],
    "operatingHours": "09:00~19:00",
    "phone": "031-0123-4567",
    "description": "의정부 종합 동물병원",
    "distanceKm": 0.0
  },
  {
    "id": "hosp_081",
    "name": "춘천 동물병원",
    "address": "강원도 춘천시 중앙로 123",
    "city": "강원도 춘천시",
    "latitude": 37.8813,
    "longitude": 127.7298,
    "departments": ["내과", "외과"],
    "operatingHours": "09:00~18:00",
    "phone": "033-1234-5678",
    "description": "춘천 지역 동물병원",
    "distanceKm": 0.0
  },
  {
    "id": "hosp_082",
    "name": "원주 24시 동물병원",
    "address": "강원도 원주시 원일로 456",
    "city": "강원도 원주시",
    "latitude": 37.3442,
    "longitude": 127.9200,
    "departments": ["내과", "외과", "응급의학과"],
    "operatingHours": "24시간",
    "phone": "033-2345-6789",
    "description": "원주 24시간 응급 진료",
    "distanceKm": 0.0
  },
  {
    "id": "hosp_083",
    "name": "강릉 동물의료센터",
    "address": "강원도 강릉시 중앙로 789",
    "city": "강원도 강릉시",
    "latitude": 37.7519,
    "longitude": 128.8760,
    "departments": ["내과", "정형외과", "피부과"],
    "operatingHours": "09:00~19:00",
    "phone": "033-3456-7890",
    "description": "강릉 종합 동물병원",
    "distanceKm": 0.0
  },
  {
    "id": "hosp_084",
    "name": "속초 동물병원",
    "address": "강원도 속초시 중앙로 234",
    "city": "강원도 속초시",
    "latitude": 38.2070,
    "longitude": 128.5918,
    "departments": ["내과", "외과", "안과"],
    "operatingHours": "09:00~18:00",
    "phone": "033-4567-8901",
    "description": "속초 지역 동물병원",
    "distanceKm": 0.0
  },
  {
    "id": "hosp_085",
    "name": "태백 동물병원",
    "address": "강원도 태백시 태백로 567",
    "city": "강원도 태백시",
    "latitude": 37.1641,
    "longitude": 128.9856,
    "departments": ["내과", "외과"],
    "operatingHours": "09:00~18:00",
    "phone": "033-5678-9012",
    "description": "태백 지역 동물병원",
    "distanceKm": 0.0
  },
  {
    "id": "hosp_086",
    "name": "천안 동물병원",
    "address": "충청남도 천안시 동남구 중앙로 890",
    "city": "충청남도 천안시",
    "latitude": 36.8000,
    "longitude": 127.1500,
    "departments": ["내과", "외과"],
    "operatingHours": "09:00~18:00",
    "phone": "041-1234-5678",
    "description": "천안 지역 동물병원",
    "distanceKm": 0.0
  },
  {
    "id": "hosp_087",
    "name": "천안 24시 동물병원",
    "address": "충청남도 천안시 서북구 번영로 123",
    "city": "충청남도 천안시",
    "latitude": 36.8200,
    "longitude": 127.1300,
    "departments": ["내과", "외과", "응급의학과"],
    "operatingHours": "24시간",
    "phone": "041-2345-6789",
    "description": "천안 24시간 응급 진료",
    "distanceKm": 0.0
  },
  {
    "id": "hosp_088",
    "name": "청주 동물의료센터",
    "address": "충청북도 청주시 상당구 상당로 456",
    "city": "충청북도 청주시",
    "latitude": 36.6424,
    "longitude": 127.4890,
    "departments": ["내과", "정형외과", "피부과"],
    "operatingHours": "09:00~19:00",
    "phone": "043-3456-7890",
    "description": "청주 종합 동물병원",
    "distanceKm": 0.0
  },
  {
    "id": "hosp_089",
    "name": "충주 동물병원",
    "address": "충청북도 충주시 중앙로 789",
    "city": "충청북도 충주시",
    "latitude": 36.9912,
    "longitude": 127.9262,
    "departments": ["내과", "외과", "안과"],
    "operatingHours": "09:00~18:00",
    "phone": "043-4567-8901",
    "description": "충주 지역 동물병원",
    "distanceKm": 0.0
  },
  {
    "id": "hosp_090",
    "name": "아산 동물병원",
    "address": "충청남도 아산시 번영로 234",
    "city": "충청남도 아산시",
    "latitude": 36.7848,
    "longitude": 127.0037,
    "departments": ["내과", "외과"],
    "operatingHours": "09:00~18:00",
    "phone": "041-5678-9012",
    "description": "아산 지역 동물병원",
    "distanceKm": 0.0
  },
  {
    "id": "hosp_091",
    "name": "전주 동물병원",
    "address": "전라북도 전주시 완산구 전주천동로 567",
    "city": "전라북도 전주시",
    "latitude": 35.8242,
    "longitude": 127.1480,
    "departments": ["내과", "외과"],
    "operatingHours": "09:00~18:00",
    "phone": "063-1234-5678",
    "description": "전주 지역 동물병원",
    "distanceKm": 0.0
  },
  {
    "id": "hosp_092",
    "name": "전주 24시 동물병원",
    "address": "전라북도 전주시 덕진구 동부대로 890",
    "city": "전라북도 전주시",
    "latitude": 35.8384,
    "longitude": 127.1300,
    "departments": ["내과", "외과", "응급의학과"],
    "operatingHours": "24시간",
    "phone": "063-2345-6789",
    "description": "전주 24시간 응급 진료",
    "distanceKm": 0.0
  },
  {
    "id": "hosp_093",
    "name": "익산 동물의료센터",
    "address": "전라북도 익산시 중앙로 123",
    "city": "전라북도 익산시",
    "latitude": 35.9400,
    "longitude": 126.9540,
    "departments": ["내과", "정형외과", "피부과"],
    "operatingHours": "09:00~19:00",
    "phone": "063-3456-7890",
    "description": "익산 종합 동물병원",
    "distanceKm": 0.0
  },
  {
    "id": "hosp_094",
    "name": "군산 동물병원",
    "address": "전라북도 군산시 중앙로 456",
    "city": "전라북도 군산시",
    "latitude": 35.9677,
    "longitude": 126.7369,
    "departments": ["내과", "외과", "안과"],
    "operatingHours": "09:00~18:00",
    "phone": "063-4567-8901",
    "description": "군산 지역 동물병원",
    "distanceKm": 0.0
  },
  {
    "id": "hosp_095",
    "name": "여수 동물병원",
    "address": "전라남도 여수시 중앙로 789",
    "city": "전라남도 여수시",
    "latitude": 34.7604,
    "longitude": 127.6622,
    "departments": ["내과", "외과"],
    "operatingHours": "09:00~18:00",
    "phone": "061-1234-5678",
    "description": "여수 지역 동물병원",
    "distanceKm": 0.0
  },
  {
    "id": "hosp_096",
    "name": "포항 동물병원",
    "address": "경상북도 포항시 남구 중앙로 234",
    "city": "경상북도 포항시",
    "latitude": 36.0322,
    "longitude": 129.3652,
    "departments": ["내과", "외과"],
    "operatingHours": "09:00~18:00",
    "phone": "054-1234-5678",
    "description": "포항 지역 동물병원",
    "distanceKm": 0.0
  },
  {
    "id": "hosp_097",
    "name": "포항 24시 동물병원",
    "address": "경상북도 포항시 북구 새천년대로 567",
    "city": "경상북도 포항시",
    "latitude": 36.0622,
    "longitude": 129.3652,
    "departments": ["내과", "외과", "응급의학과"],
    "operatingHours": "24시간",
    "phone": "054-2345-6789",
    "description": "포항 24시간 응급 진료",
    "distanceKm": 0.0
  },
  {
    "id": "hosp_098",
    "name": "구미 동물의료센터",
    "address": "경상북도 구미시 인동가산로 890",
    "city": "경상북도 구미시",
    "latitude": 36.1194,
    "longitude": 128.3446,
    "departments": ["내과", "정형외과", "피부과"],
    "operatingHours": "09:00~19:00",
    "phone": "054-3456-7890",
    "description": "구미 종합 동물병원",
    "distanceKm": 0.0
  },
  {
    "id": "hosp_099",
    "name": "창원 동물병원",
    "address": "경상남도 창원시 의창구 중앙대로 123",
    "city": "경상남도 창원시",
    "latitude": 35.2279,
    "longitude": 128.6819,
    "departments": ["내과", "외과", "안과"],
    "operatingHours": "09:00~18:00",
    "phone": "055-1234-5678",
    "description": "창원 지역 동물병원",
    "distanceKm": 0.0
  },
  {
    "id": "hosp_100",
    "name": "창원 24시 동물병원",
    "address": "경상남도 창원시 성산구 중앙대로 456",
    "city": "경상남도 창원시",
    "latitude": 35.2279,
    "longitude": 128.6819,
    "departments": ["내과", "외과", "응급의학과"],
    "operatingHours": "24시간",
    "phone": "055-2345-6789",
    "description": "창원 24시간 응급 진료",
    "distanceKm": 0.0
  },
  {
    "id": "hosp_101",
    "name": "유성구 궁동 동물병원",
    "address": "대전광역시 유성구 궁동로 234",
    "city": "대전광역시 유성구",
    "latitude": 36.3650,
    "longitude": 127.3400,
    "departments": ["내과", "외과", "안과"],
    "operatingHours": "09:00~18:00",
    "phone": "042-7890-1234",
    "description": "유성구 궁동 지역 동물병원",
    "distanceKm": 0.0
  },
  {
    "id": "hosp_102",
    "name": "유성구 봉명동 동물의료센터",
    "address": "대전광역시 유성구 봉명로 567",
    "city": "대전광역시 유성구",
    "latitude": 36.3600,
    "longitude": 127.3450,
    "departments": ["내과", "정형외과", "피부과"],
    "operatingHours": "09:00~19:00",
    "phone": "042-8901-2345",
    "description": "유성구 봉명동 종합 동물병원",
    "distanceKm": 0.0
  },
  {
    "id": "hosp_103",
    "name": "유성구 온천동 동물병원",
    "address": "대전광역시 유성구 온천로 890",
    "city": "대전광역시 유성구",
    "latitude": 36.3700,
    "longitude": 127.3500,
    "departments": ["내과", "외과"],
    "operatingHours": "09:00~18:00",
    "phone": "042-9012-3456",
    "description": "유성구 온천동 지역 동물병원",
    "distanceKm": 0.0
  },
  {
    "id": "hosp_104",
    "name": "유성구 노은동 24시 동물병원",
    "address": "대전광역시 유성구 노은로 123",
    "city": "대전광역시 유성구",
    "latitude": 36.3750,
    "longitude": 127.3200,
    "departments": ["내과", "외과", "응급의학과"],
    "operatingHours": "24시간",
    "phone": "042-0123-4567",
    "description": "유성구 노은동 24시간 응급 진료",
    "distanceKm": 0.0
  },
  {
    "id": "hosp_105",
    "name": "유성구 전민동 동물병원",
    "address": "대전광역시 유성구 전민로 456",
    "city": "대전광역시 유성구",
    "latitude": 36.3800,
    "longitude": 127.3700,
    "departments": ["내과", "외과", "피부과"],
    "operatingHours": "09:00~18:00",
    "phone": "042-1234-5678",
    "description": "유성구 전민동 지역 동물병원",
    "distanceKm": 0.0
  },
  {
    "id": "hosp_106",
    "name": "유성구 관평동 동물의료센터",
    "address": "대전광역시 유성구 관평로 789",
    "city": "대전광역시 유성구",
    "latitude": 36.3900,
    "longitude": 127.3800,
    "departments": ["내과", "정형외과", "안과"],
    "operatingHours": "09:00~19:00",
    "phone": "042-2345-6789",
    "description": "유성구 관평동 종합 동물병원",
    "distanceKm": 0.0
  },
  {
    "id": "hosp_107",
    "name": "중구 선화동 동물병원",
    "address": "대전광역시 중구 선화로 234",
    "city": "대전광역시 중구",
    "latitude": 36.3300,
    "longitude": 127.4150,
    "departments": ["내과", "외과"],
    "operatingHours": "09:00~18:00",
    "phone": "042-3456-7890",
    "description": "중구 선화동 지역 동물병원",
    "distanceKm": 0.0
  },
  {
    "id": "hosp_108",
    "name": "중구 대사동 24시 동물병원",
    "address": "대전광역시 중구 대사로 567",
    "city": "대전광역시 중구",
    "latitude": 36.3350,
    "longitude": 127.4250,
    "departments": ["내과", "외과", "응급의학과"],
    "operatingHours": "24시간",
    "phone": "042-4567-8901",
    "description": "중구 대사동 24시간 응급 진료",
    "distanceKm": 0.0
  },
  {
    "id": "hosp_109",
    "name": "중구 용두동 동물의료센터",
    "address": "대전광역시 중구 용두로 890",
    "city": "대전광역시 중구",
    "latitude": 36.3200,
    "longitude": 127.4100,
    "departments": ["내과", "정형외과", "피부과"],
    "operatingHours": "09:00~19:00",
    "phone": "042-5678-9012",
    "description": "중구 용두동 종합 동물병원",
    "distanceKm": 0.0
  },
  {
    "id": "hosp_110",
    "name": "서구 둔산동 동물병원",
    "address": "대전광역시 서구 둔산로 456",
    "city": "대전광역시 서구",
    "latitude": 36.3550,
    "longitude": 127.3850,
    "departments": ["내과", "외과", "안과"],
    "operatingHours": "09:00~18:00",
    "phone": "042-6789-0123",
    "description": "서구 둔산동 지역 동물병원",
    "distanceKm": 0.0
  },
  {
    "id": "hosp_111",
    "name": "서구 월평동 24시 동물병원",
    "address": "대전광역시 서구 월평로 789",
    "city": "대전광역시 서구",
    "latitude": 36.3600,
    "longitude": 127.3750,
    "departments": ["내과", "외과", "응급의학과"],
    "operatingHours": "24시간",
    "phone": "042-7890-1234",
    "description": "서구 월평동 24시간 응급 진료",
    "distanceKm": 0.0
  },
  {
    "id": "hosp_112",
    "name": "서구 관저동 동물의료센터",
    "address": "대전광역시 서구 관저로 123",
    "city": "대전광역시 서구",
    "latitude": 36.3450,
    "longitude": 127.3650,
    "departments": ["내과", "정형외과", "피부과"],
    "operatingHours": "09:00~19:00",
    "phone": "042-8901-2345",
    "description": "서구 관저동 종합 동물병원",
    "distanceKm": 0.0
  },
  {
    "id": "hosp_113",
    "name": "서구 탄방동 동물병원",
    "address": "대전광역시 서구 탄방로 456",
    "city": "대전광역시 서구",
    "latitude": 36.3500,
    "longitude": 127.3900,
    "departments": ["내과", "외과"],
    "operatingHours": "09:00~18:00",
    "phone": "042-9012-3456",
    "description": "서구 탄방동 지역 동물병원",
    "distanceKm": 0.0
  },
  {
    "id": "hosp_114",
    "name": "동구 용운동 동물병원",
    "address": "대전광역시 동구 용운로 789",
    "city": "대전광역시 동구",
    "latitude": 36.3300,
    "longitude": 127.4400,
    "departments": ["내과", "외과", "안과"],
    "operatingHours": "09:00~18:00",
    "phone": "042-0123-4567",
    "description": "동구 용운동 지역 동물병원",
    "distanceKm": 0.0
  },
  {
    "id": "hosp_115",
    "name": "동구 자양동 24시 동물병원",
    "address": "대전광역시 동구 자양로 234",
    "city": "대전광역시 동구",
    "latitude": 36.3250,
    "longitude": 127.4350,
    "departments": ["내과", "외과", "응급의학과"],
    "operatingHours": "24시간",
    "phone": "042-1234-5678",
    "description": "동구 자양동 24시간 응급 진료",
    "distanceKm": 0.0
  },
  {
    "id": "hosp_116",
    "name": "동구 판암동 동물의료센터",
    "address": "대전광역시 동구 판암로 567",
    "city": "대전광역시 동구",
    "latitude": 36.3200,
    "longitude": 127.4500,
    "departments": ["내과", "정형외과", "피부과"],
    "operatingHours": "09:00~19:00",
    "phone": "042-2345-6789",
    "description": "동구 판암동 종합 동물병원",
    "distanceKm": 0.0
  },
  {
    "id": "hosp_117",
    "name": "대덕구 오정동 동물병원",
    "address": "대전광역시 대덕구 오정로 890",
    "city": "대전광역시 대덕구",
    "latitude": 36.3600,
    "longitude": 127.3950,
    "departments": ["내과", "외과"],
    "operatingHours": "09:00~18:00",
    "phone": "042-3456-7890",
    "description": "대덕구 오정동 지역 동물병원",
    "distanceKm": 0.0
  },
  {
    "id": "hosp_118",
    "name": "대덕구 신탄진 24시 동물병원",
    "address": "대전광역시 대덕구 신탄진로 123",
    "city": "대전광역시 대덕구",
    "latitude": 36.4500,
    "longitude": 127.4300,
    "departments": ["내과", "외과", "응급의학과"],
    "operatingHours": "24시간",
    "phone": "042-4567-8901",
    "description": "대덕구 신탄진 24시간 응급 진료",
    "distanceKm": 0.0
  },
  {
    "id": "hosp_119",
    "name": "대덕구 회덕동 동물의료센터",
    "address": "대전광역시 대덕구 회덕로 456",
    "city": "대전광역시 대덕구",
    "latitude": 36.3650,
    "longitude": 127.4000,
    "departments": ["내과", "정형외과", "피부과"],
    "operatingHours": "09:00~19:00",
    "phone": "042-5678-9012",
    "description": "대덕구 회덕동 종합 동물병원",
    "distanceKm": 0.0
  },
  {
    "id": "hosp_120",
    "name": "대덕구 비래동 동물병원",
    "address": "대전광역시 대덕구 비래로 789",
    "city": "대전광역시 대덕구",
    "latitude": 36.3550,
    "longitude": 127.4100,
    "departments": ["내과", "외과", "안과"],
    "operatingHours": "09:00~18:00",
    "phone": "042-6789-0123",
    "description": "대덕구 비래동 지역 동물병원",
    "distanceKm": 0.0
  },
  {
    "id": "hosp_121",
    "name": "유성구 궁동 제2동물병원",
    "address": "대전광역시 유성구 궁동로 567",
    "city": "대전광역시 유성구",
    "latitude": 36.3660,
    "longitude": 127.3420,
    "departments": ["내과", "외과", "피부과"],
    "operatingHours": "09:00~18:00",
    "phone": "042-7891-2345",
    "description": "유성구 궁동 지역 동물병원",
    "distanceKm": 0.0
  },
  {
    "id": "hosp_122",
    "name": "유성구 궁동 제3동물의료센터",
    "address": "대전광역시 유성구 궁동로 890",
    "city": "대전광역시 유성구",
    "latitude": 36.3670,
    "longitude": 127.3440,
    "departments": ["내과", "정형외과", "안과"],
    "operatingHours": "09:00~19:00",
    "phone": "042-7892-3456",
    "description": "유성구 궁동 종합 동물병원",
    "distanceKm": 0.0
  },
  {
    "id": "hosp_123",
    "name": "유성구 봉명동 제2동물병원",
    "address": "대전광역시 유성구 봉명로 890",
    "city": "대전광역시 유성구",
    "latitude": 36.3610,
    "longitude": 127.3470,
    "departments": ["내과", "외과", "안과"],
    "operatingHours": "09:00~18:00",
    "phone": "042-8902-3456",
    "description": "유성구 봉명동 지역 동물병원",
    "distanceKm": 0.0
  },
  {
    "id": "hosp_124",
    "name": "유성구 봉명동 제3동물의료센터",
    "address": "대전광역시 유성구 봉명로 123",
    "city": "대전광역시 유성구",
    "latitude": 36.3620,
    "longitude": 127.3490,
    "departments": ["내과", "외과", "응급의학과"],
    "operatingHours": "24시간",
    "phone": "042-8903-4567",
    "description": "유성구 봉명동 24시간 응급 진료",
    "distanceKm": 0.0
  },
  {
    "id": "hosp_125",
    "name": "유성구 온천동 제2동물병원",
    "address": "대전광역시 유성구 온천로 234",
    "city": "대전광역시 유성구",
    "latitude": 36.3710,
    "longitude": 127.3520,
    "departments": ["내과", "외과", "피부과"],
    "operatingHours": "09:00~18:00",
    "phone": "042-9013-4567",
    "description": "유성구 온천동 지역 동물병원",
    "distanceKm": 0.0
  },
  {
    "id": "hosp_126",
    "name": "유성구 온천동 제3동물의료센터",
    "address": "대전광역시 유성구 온천로 567",
    "city": "대전광역시 유성구",
    "latitude": 36.3720,
    "longitude": 127.3540,
    "departments": ["내과", "정형외과", "안과"],
    "operatingHours": "09:00~19:00",
    "phone": "042-9014-5678",
    "description": "유성구 온천동 종합 동물병원",
    "distanceKm": 0.0
  },
  {
    "id": "hosp_127",
    "name": "유성구 노은동 제2동물병원",
    "address": "대전광역시 유성구 노은로 456",
    "city": "대전광역시 유성구",
    "latitude": 36.3760,
    "longitude": 127.3220,
    "departments": ["내과", "외과", "피부과"],
    "operatingHours": "09:00~18:00",
    "phone": "042-0124-5678",
    "description": "유성구 노은동 지역 동물병원",
    "distanceKm": 0.0
  },
  {
    "id": "hosp_128",
    "name": "유성구 노은동 제3동물의료센터",
    "address": "대전광역시 유성구 노은로 789",
    "city": "대전광역시 유성구",
    "latitude": 36.3770,
    "longitude": 127.3240,
    "departments": ["내과", "정형외과", "안과"],
    "operatingHours": "09:00~19:00",
    "phone": "042-0125-6789",
    "description": "유성구 노은동 종합 동물병원",
    "distanceKm": 0.0
  },
  {
    "id": "hosp_129",
    "name": "유성구 전민동 제2동물병원",
    "address": "대전광역시 유성구 전민로 789",
    "city": "대전광역시 유성구",
    "latitude": 36.3810,
    "longitude": 127.3720,
    "departments": ["내과", "외과", "안과"],
    "operatingHours": "09:00~18:00",
    "phone": "042-1235-6789",
    "description": "유성구 전민동 지역 동물병원",
    "distanceKm": 0.0
  },
  {
    "id": "hosp_130",
    "name": "유성구 전민동 제3동물의료센터",
    "address": "대전광역시 유성구 전민로 123",
    "city": "대전광역시 유성구",
    "latitude": 36.3820,
    "longitude": 127.3740,
    "departments": ["내과", "외과", "응급의학과"],
    "operatingHours": "24시간",
    "phone": "042-1236-7890",
    "description": "유성구 전민동 24시간 응급 진료",
    "distanceKm": 0.0
  },
  {
    "id": "hosp_131",
    "name": "유성구 관평동 제2동물병원",
    "address": "대전광역시 유성구 관평로 234",
    "city": "대전광역시 유성구",
    "latitude": 36.3910,
    "longitude": 127.3820,
    "departments": ["내과", "외과", "피부과"],
    "operatingHours": "09:00~18:00",
    "phone": "042-2346-7890",
    "description": "유성구 관평동 지역 동물병원",
    "distanceKm": 0.0
  },
  {
    "id": "hosp_132",
    "name": "유성구 관평동 제3동물의료센터",
    "address": "대전광역시 유성구 관평로 567",
    "city": "대전광역시 유성구",
    "latitude": 36.3920,
    "longitude": 127.3840,
    "departments": ["내과", "정형외과", "안과"],
    "operatingHours": "09:00~19:00",
    "phone": "042-2347-8901",
    "description": "유성구 관평동 종합 동물병원",
    "distanceKm": 0.0
  },
  {
    "id": "hosp_133",
    "name": "중구 선화동 제2동물병원",
    "address": "대전광역시 중구 선화로 567",
    "city": "대전광역시 중구",
    "latitude": 36.3310,
    "longitude": 127.4170,
    "departments": ["내과", "외과", "피부과"],
    "operatingHours": "09:00~18:00",
    "phone": "042-3457-8901",
    "description": "중구 선화동 지역 동물병원",
    "distanceKm": 0.0
  },
  {
    "id": "hosp_134",
    "name": "중구 선화동 제3동물의료센터",
    "address": "대전광역시 중구 선화로 890",
    "city": "대전광역시 중구",
    "latitude": 36.3320,
    "longitude": 127.4190,
    "departments": ["내과", "정형외과", "안과"],
    "operatingHours": "09:00~19:00",
    "phone": "042-3458-9012",
    "description": "중구 선화동 종합 동물병원",
    "distanceKm": 0.0
  },
  {
    "id": "hosp_135",
    "name": "중구 대사동 제2동물병원",
    "address": "대전광역시 중구 대사로 890",
    "city": "대전광역시 중구",
    "latitude": 36.3360,
    "longitude": 127.4270,
    "departments": ["내과", "외과", "피부과"],
    "operatingHours": "09:00~18:00",
    "phone": "042-4568-9012",
    "description": "중구 대사동 지역 동물병원",
    "distanceKm": 0.0
  },
  {
    "id": "hosp_136",
    "name": "중구 대사동 제3동물의료센터",
    "address": "대전광역시 중구 대사로 123",
    "city": "대전광역시 중구",
    "latitude": 36.3370,
    "longitude": 127.4290,
    "departments": ["내과", "정형외과", "안과"],
    "operatingHours": "09:00~19:00",
    "phone": "042-4569-0123",
    "description": "중구 대사동 종합 동물병원",
    "distanceKm": 0.0
  },
  {
    "id": "hosp_137",
    "name": "중구 용두동 제2동물병원",
    "address": "대전광역시 중구 용두로 234",
    "city": "대전광역시 중구",
    "latitude": 36.3210,
    "longitude": 127.4120,
    "departments": ["내과", "외과", "안과"],
    "operatingHours": "09:00~18:00",
    "phone": "042-5679-0123",
    "description": "중구 용두동 지역 동물병원",
    "distanceKm": 0.0
  },
  {
    "id": "hosp_138",
    "name": "중구 용두동 제3동물의료센터",
    "address": "대전광역시 중구 용두로 567",
    "city": "대전광역시 중구",
    "latitude": 36.3220,
    "longitude": 127.4140,
    "departments": ["내과", "외과", "응급의학과"],
    "operatingHours": "24시간",
    "phone": "042-5680-1234",
    "description": "중구 용두동 24시간 응급 진료",
    "distanceKm": 0.0
  },
  {
    "id": "hosp_139",
    "name": "서구 둔산동 제2동물병원",
    "address": "대전광역시 서구 둔산로 789",
    "city": "대전광역시 서구",
    "latitude": 36.3560,
    "longitude": 127.3870,
    "departments": ["내과", "외과", "피부과"],
    "operatingHours": "09:00~18:00",
    "phone": "042-6790-1234",
    "description": "서구 둔산동 지역 동물병원",
    "distanceKm": 0.0
  },
  {
    "id": "hosp_140",
    "name": "서구 둔산동 제3동물의료센터",
    "address": "대전광역시 서구 둔산로 123",
    "city": "대전광역시 서구",
    "latitude": 36.3570,
    "longitude": 127.3890,
    "departments": ["내과", "정형외과", "안과"],
    "operatingHours": "09:00~19:00",
    "phone": "042-6791-2345",
    "description": "서구 둔산동 종합 동물병원",
    "distanceKm": 0.0
  },
  {
    "id": "hosp_141",
    "name": "서구 월평동 제2동물병원",
    "address": "대전광역시 서구 월평로 123",
    "city": "대전광역시 서구",
    "latitude": 36.3610,
    "longitude": 127.3770,
    "departments": ["내과", "외과", "피부과"],
    "operatingHours": "09:00~18:00",
    "phone": "042-7901-2345",
    "description": "서구 월평동 지역 동물병원",
    "distanceKm": 0.0
  },
  {
    "id": "hosp_142",
    "name": "서구 월평동 제3동물의료센터",
    "address": "대전광역시 서구 월평로 456",
    "city": "대전광역시 서구",
    "latitude": 36.3620,
    "longitude": 127.3790,
    "departments": ["내과", "정형외과", "안과"],
    "operatingHours": "09:00~19:00",
    "phone": "042-7902-3456",
    "description": "서구 월평동 종합 동물병원",
    "distanceKm": 0.0
  },
  {
    "id": "hosp_143",
    "name": "서구 관저동 제2동물병원",
    "address": "대전광역시 서구 관저로 456",
    "city": "대전광역시 서구",
    "latitude": 36.3460,
    "longitude": 127.3670,
    "departments": ["내과", "외과", "안과"],
    "operatingHours": "09:00~18:00",
    "phone": "042-8912-3456",
    "description": "서구 관저동 지역 동물병원",
    "distanceKm": 0.0
  },
  {
    "id": "hosp_144",
    "name": "서구 관저동 제3동물의료센터",
    "address": "대전광역시 서구 관저로 789",
    "city": "대전광역시 서구",
    "latitude": 36.3470,
    "longitude": 127.3690,
    "departments": ["내과", "외과", "응급의학과"],
    "operatingHours": "24시간",
    "phone": "042-8913-4567",
    "description": "서구 관저동 24시간 응급 진료",
    "distanceKm": 0.0
  },
  {
    "id": "hosp_145",
    "name": "서구 탄방동 제2동물병원",
    "address": "대전광역시 서구 탄방로 789",
    "city": "대전광역시 서구",
    "latitude": 36.3510,
    "longitude": 127.3920,
    "departments": ["내과", "외과", "피부과"],
    "operatingHours": "09:00~18:00",
    "phone": "042-9023-4567",
    "description": "서구 탄방동 지역 동물병원",
    "distanceKm": 0.0
  },
  {
    "id": "hosp_146",
    "name": "서구 탄방동 제3동물의료센터",
    "address": "대전광역시 서구 탄방로 123",
    "city": "대전광역시 서구",
    "latitude": 36.3520,
    "longitude": 127.3940,
    "departments": ["내과", "정형외과", "안과"],
    "operatingHours": "09:00~19:00",
    "phone": "042-9024-5678",
    "description": "서구 탄방동 종합 동물병원",
    "distanceKm": 0.0
  },
  {
    "id": "hosp_147",
    "name": "동구 용운동 제2동물병원",
    "address": "대전광역시 동구 용운로 123",
    "city": "대전광역시 동구",
    "latitude": 36.3310,
    "longitude": 127.4420,
    "departments": ["내과", "외과", "피부과"],
    "operatingHours": "09:00~18:00",
    "phone": "042-0134-5678",
    "description": "동구 용운동 지역 동물병원",
    "distanceKm": 0.0
  },
  {
    "id": "hosp_148",
    "name": "동구 용운동 제3동물의료센터",
    "address": "대전광역시 동구 용운로 456",
    "city": "대전광역시 동구",
    "latitude": 36.3320,
    "longitude": 127.4440,
    "departments": ["내과", "정형외과", "안과"],
    "operatingHours": "09:00~19:00",
    "phone": "042-0135-6789",
    "description": "동구 용운동 종합 동물병원",
    "distanceKm": 0.0
  },
  {
    "id": "hosp_149",
    "name": "동구 자양동 제2동물병원",
    "address": "대전광역시 동구 자양로 567",
    "city": "대전광역시 동구",
    "latitude": 36.3260,
    "longitude": 127.4370,
    "departments": ["내과", "외과", "피부과"],
    "operatingHours": "09:00~18:00",
    "phone": "042-1245-6789",
    "description": "동구 자양동 지역 동물병원",
    "distanceKm": 0.0
  },
  {
    "id": "hosp_150",
    "name": "동구 자양동 제3동물의료센터",
    "address": "대전광역시 동구 자양로 890",
    "city": "대전광역시 동구",
    "latitude": 36.3270,
    "longitude": 127.4390,
    "departments": ["내과", "정형외과", "안과"],
    "operatingHours": "09:00~19:00",
    "phone": "042-1246-7890",
    "description": "동구 자양동 종합 동물병원",
    "distanceKm": 0.0
  },
  {
    "id": "hosp_151",
    "name": "동구 판암동 제2동물병원",
    "address": "대전광역시 동구 판암로 890",
    "city": "대전광역시 동구",
    "latitude": 36.3210,
    "longitude": 127.4520,
    "departments": ["내과", "외과", "안과"],
    "operatingHours": "09:00~18:00",
    "phone": "042-2356-7890",
    "description": "동구 판암동 지역 동물병원",
    "distanceKm": 0.0
  },
  {
    "id": "hosp_152",
    "name": "동구 판암동 제3동물의료센터",
    "address": "대전광역시 동구 판암로 123",
    "city": "대전광역시 동구",
    "latitude": 36.3220,
    "longitude": 127.4540,
    "departments": ["내과", "외과", "응급의학과"],
    "operatingHours": "24시간",
    "phone": "042-2357-8901",
    "description": "동구 판암동 24시간 응급 진료",
    "distanceKm": 0.0
  },
  {
    "id": "hosp_153",
    "name": "대덕구 오정동 제2동물병원",
    "address": "대전광역시 대덕구 오정로 123",
    "city": "대전광역시 대덕구",
    "latitude": 36.3610,
    "longitude": 127.3970,
    "departments": ["내과", "외과", "피부과"],
    "operatingHours": "09:00~18:00",
    "phone": "042-3467-8901",
    "description": "대덕구 오정동 지역 동물병원",
    "distanceKm": 0.0
  },
  {
    "id": "hosp_154",
    "name": "대덕구 오정동 제3동물의료센터",
    "address": "대전광역시 대덕구 오정로 456",
    "city": "대전광역시 대덕구",
    "latitude": 36.3620,
    "longitude": 127.3990,
    "departments": ["내과", "정형외과", "안과"],
    "operatingHours": "09:00~19:00",
    "phone": "042-3468-9012",
    "description": "대덕구 오정동 종합 동물병원",
    "distanceKm": 0.0
  },
  {
    "id": "hosp_155",
    "name": "대덕구 신탄진 제2동물병원",
    "address": "대전광역시 대덕구 신탄진로 456",
    "city": "대전광역시 대덕구",
    "latitude": 36.4510,
    "longitude": 127.4320,
    "departments": ["내과", "외과", "피부과"],
    "operatingHours": "09:00~18:00",
    "phone": "042-4578-9012",
    "description": "대덕구 신탄진 지역 동물병원",
    "distanceKm": 0.0
  },
  {
    "id": "hosp_156",
    "name": "대덕구 신탄진 제3동물의료센터",
    "address": "대전광역시 대덕구 신탄진로 789",
    "city": "대전광역시 대덕구",
    "latitude": 36.4520,
    "longitude": 127.4340,
    "departments": ["내과", "정형외과", "안과"],
    "operatingHours": "09:00~19:00",
    "phone": "042-4579-0123",
    "description": "대덕구 신탄진 종합 동물병원",
    "distanceKm": 0.0
  },
  {
    "id": "hosp_157",
    "name": "대덕구 회덕동 제2동물병원",
    "address": "대전광역시 대덕구 회덕로 789",
    "city": "대전광역시 대덕구",
    "latitude": 36.3660,
    "longitude": 127.4020,
    "departments": ["내과", "외과", "안과"],
    "operatingHours": "09:00~18:00",
    "phone": "042-5689-0123",
    "description": "대덕구 회덕동 지역 동물병원",
    "distanceKm": 0.0
  },
  {
    "id": "hosp_158",
    "name": "대덕구 회덕동 제3동물의료센터",
    "address": "대전광역시 대덕구 회덕로 123",
    "city": "대전광역시 대덕구",
    "latitude": 36.3670,
    "longitude": 127.4040,
    "departments": ["내과", "외과", "응급의학과"],
    "operatingHours": "24시간",
    "phone": "042-5690-1234",
    "description": "대덕구 회덕동 24시간 응급 진료",
    "distanceKm": 0.0
  },
  {
    "id": "hosp_159",
    "name": "대덕구 비래동 제2동물병원",
    "address": "대전광역시 대덕구 비래로 123",
    "city": "대전광역시 대덕구",
    "latitude": 36.3560,
    "longitude": 127.4120,
    "departments": ["내과", "외과", "피부과"],
    "operatingHours": "09:00~18:00",
    "phone": "042-6800-1234",
    "description": "대덕구 비래동 지역 동물병원",
    "distanceKm": 0.0
  },
  {
    "id": "hosp_160",
    "name": "대덕구 비래동 제3동물의료센터",
    "address": "대전광역시 대덕구 비래로 456",
    "city": "대전광역시 대덕구",
    "latitude": 36.3570,
    "longitude": 127.4140,
    "departments": ["내과", "정형외과", "안과"],
    "operatingHours": "09:00~19:00",
    "phone": "042-6801-2345",
    "description": "대덕구 비래동 종합 동물병원",
    "distanceKm": 0.0
  }
]
